{
"type": "FeatureCollection",
"name": "schnucks",
"crs": { "type": "name", "properties": { "name": "urn:ogc:def:crs:OGC:1.3:CRS84" } },
"features": [
{ "type": "Feature", "properties": { "OBJECTID": 1, "Company": "Schnucks Oak Grove Village", "Street": "375 MO-185", "City": "Sullivan", "State": "MO", "Zip": 63080, "Phone": "(573) 468-4191", "Latitude": 38.221778270836197, "Longitude": -91.1512878278362 }, "geometry": { "type": "Point", "coordinates": [ -91.1512878278362, 38.221778270836197 ] } },
{ "type": "Feature", "properties": { "OBJECTID": 2, "Company": "Schnucks Jefferson City", "Street": "1801 Missouri Blvd", "City": "Jefferson City", "State": "MO", "Zip": 65109, "Phone": "(573) 635-4666", "Latitude": 38.579453182190399, "Longitude": -92.199540949121996 }, "geometry": { "type": "Point", "coordinates": [ -92.199540949121996, 38.579453182190399 ] } },
{ "type": "Feature", "properties": { "OBJECTID": 3, "Company": "Schnucks Union", "Street": "401 Central Ave", "City": "Union", "State": "MO", "Zip": 63084, "Phone": "(636) 583-2181", "Latitude": 38.455894527102402, "Longitude": -91.004924931286894 }, "geometry": { "type": "Point", "coordinates": [ -91.004924931286894, 38.455894527102402 ] } },
{ "type": "Feature", "properties": { "OBJECTID": 4, "Company": "Schnucks Washington", "Street": "2073 Washington Crossing", "City": "Washington", "State": "MO", "Zip": 63090, "Phone": "(636) 239-3577", "Latitude": 38.535772996363697, "Longitude": -91.008329050179 }, "geometry": { "type": "Point", "coordinates": [ -91.008329050179, 38.535772996363697 ] } },
{ "type": "Feature", "properties": { "OBJECTID": 5, "Company": "Schnucks Warrenton", "Street": "499 E Veterans Memorial Pkwy", "City": "Warrenton", "State": "MO", "Zip": 63383, "Phone": "(636) 456-1036", "Latitude": 38.8200282028019, "Longitude": -91.144447258741195 }, "geometry": { "type": "Point", "coordinates": [ -91.144447258741195, 38.8200282028019 ] } },
{ "type": "Feature", "properties": { "OBJECTID": 6, "Company": "Schnucks Battle Crossing", "Street": "5410 Clark Ln", "City": "Columbia", "State": "MO", "Zip": 65202, "Phone": "(573) 514-6988", "Latitude": 38.962456549407896, "Longitude": -92.2549673898408 }, "geometry": { "type": "Point", "coordinates": [ -92.2549673898408, 38.962456549407896 ] } },
{ "type": "Feature", "properties": { "OBJECTID": 7, "Company": "Schnucks Columbia", "Street": "1400 Forum Blvd", "City": "Columbia", "State": "MO", "Zip": 65203, "Phone": "(573) 446-2800", "Latitude": 38.937300147253701, "Longitude": -92.358670981802803 }, "geometry": { "type": "Point", "coordinates": [ -92.358670981802803, 38.937300147253701 ] } },
{ "type": "Feature", "properties": { "OBJECTID": 8, "Company": "Schnucks Providence", "Street": "111 S Providence Rd", "City": "Columbia", "State": "MO", "Zip": 65203, "Phone": "(573) 442-2128", "Latitude": 38.9502081607069, "Longitude": -92.335563408508904 }, "geometry": { "type": "Point", "coordinates": [ -92.335563408508904, 38.9502081607069 ] } },
{ "type": "Feature", "properties": { "OBJECTID": 9, "Company": "Schnucks Eureka Pointe", "Street": "245 E 5th St", "City": "Eureka", "State": "MO", "Zip": 63025, "Phone": "(636) 938-4102", "Latitude": 38.507152547678203, "Longitude": -90.620007647051494 }, "geometry": { "type": "Point", "coordinates": [ -90.620007647051494, 38.507152547678203 ] } },
{ "type": "Feature", "properties": { "OBJECTID": 10, "Company": "Schnucks Farmington", "Street": "942 Valley Creek Dr", "City": "Farmington", "State": "MO", "Zip": 63640, "Phone": "(573) 664-5200", "Latitude": 37.793854179438, "Longitude": -90.441837101680093 }, "geometry": { "type": "Point", "coordinates": [ -90.441837101680093, 37.793854179438 ] } },
{ "type": "Feature", "properties": { "OBJECTID": 11, "Company": "Schnucks Wentzville Crossing", "Street": "1960 Wentzville Pkwy", "City": "Wentzville", "State": "MO", "Zip": 63385, "Phone": "(636) 332-8468", "Latitude": 38.814210360759702, "Longitude": -90.874031819894199 }, "geometry": { "type": "Point", "coordinates": [ -90.874031819894199, 38.814210360759702 ] } },
{ "type": "Feature", "properties": { "OBJECTID": 12, "Company": "Schnucks Wildwood", "Street": "16580 Manchester Rd", "City": "Wildwood", "State": "MO", "Zip": 63040, "Phone": "(636) 458-5544", "Latitude": 38.580299990416897, "Longitude": -90.617720022180606 }, "geometry": { "type": "Point", "coordinates": [ -90.617720022180606, 38.580299990416897 ] } },
{ "type": "Feature", "properties": { "OBJECTID": 13, "Company": "Schnucks Dillon", "Street": "20 Dillon Plaza Dr", "City": "High Ridge", "State": "MO", "Zip": 63049, "Phone": "(636) 677-0061", "Latitude": 38.477967496320197, "Longitude": -90.521372052967806 }, "geometry": { "type": "Point", "coordinates": [ -90.521372052967806, 38.477967496320197 ] } },
{ "type": "Feature", "properties": { "OBJECTID": 14, "Company": "Schnucks Festus", "Street": "1181 W Gannon Dr", "City": "Festus", "State": "MO", "Zip": 63028, "Phone": "(636) 937-3339", "Latitude": 38.2103101894064, "Longitude": -90.401913200223504 }, "geometry": { "type": "Point", "coordinates": [ -90.401913200223504, 38.2103101894064 ] } },
{ "type": "Feature", "properties": { "OBJECTID": 15, "Company": "Schnucks Lake Saint Louis", "Street": "101 Civic Center Dr", "City": "Lake St. Louis", "State": "MO", "Zip": 63367, "Phone": "(636) 561-1922", "Latitude": 38.784561466383003, "Longitude": -90.796478740608407 }, "geometry": { "type": "Point", "coordinates": [ -90.796478740608407, 38.784561466383003 ] } },
{ "type": "Feature", "properties": { "OBJECTID": 16, "Company": "Schnucks Town Square", "Street": "7909 State Rte N", "City": "Dardenne Prairie", "State": "MO", "Zip": 63368, "Phone": "(636) 561-4650", "Latitude": 38.768845093618999, "Longitude": -90.766223641331294 }, "geometry": { "type": "Point", "coordinates": [ -90.766223641331294, 38.768845093618999 ] } },
{ "type": "Feature", "properties": { "OBJECTID": 17, "Company": "Schnucks Ballwin", "Street": "15425 Manchester Rd", "City": "Ballwin", "State": "MO", "Zip": 63011, "Phone": "(636) 256-0644", "Latitude": 38.593581804293699, "Longitude": -90.562756592153704 }, "geometry": { "type": "Point", "coordinates": [ -90.562756592153704, 38.593581804293699 ] } },
{ "type": "Feature", "properties": { "OBJECTID": 18, "Company": "Schnucks Monticello", "Street": "3740 Monticello Plaza Drive", "City": "O'Fallon", "State": "MO", "Zip": 63368, "Phone": "(636) 300-0630", "Latitude": 38.732758602487202, "Longitude": -90.689622801930298 }, "geometry": { "type": "Point", "coordinates": [ -90.689622801930298, 38.732758602487202 ] } },
{ "type": "Feature", "properties": { "OBJECTID": 19, "Company": "Schnucks Kehrs Mill", "Street": "2511 Kehrs Mill Rd", "City": "Chesterfield", "State": "MO", "Zip": 63017, "Phone": "(636) 207-3401", "Latitude": 38.6206817539599, "Longitude": -90.581970948331104 }, "geometry": { "type": "Point", "coordinates": [ -90.581970948331104, 38.6206817539599 ] } },
{ "type": "Feature", "properties": { "OBJECTID": 20, "Company": "Schnucks Dardenne Crossing", "Street": "3029 State Hwy K", "City": "O'Fallon", "State": "MO", "Zip": 63368, "Phone": "(636) 240-6868", "Latitude": 38.755812634659897, "Longitude": -90.703860865140001 }, "geometry": { "type": "Point", "coordinates": [ -90.703860865140001, 38.755812634659897 ] } },
{ "type": "Feature", "properties": { "OBJECTID": 21, "Company": "Schnucks Twin Oaks", "Street": "1393 Big Bend Rd Ste 1", "City": "Ballwin", "State": "MO", "Zip": 63021, "Phone": "(636) 225-3777", "Latitude": 38.569461796767897, "Longitude": -90.4985027530536 }, "geometry": { "type": "Point", "coordinates": [ -90.4985027530536, 38.569461796767897 ] } },
{ "type": "Feature", "properties": { "OBJECTID": 22, "Company": "Schnucks Fenton", "Street": "45 Gravois Bluffs Plaza Dr", "City": "Fenton", "State": "MO", "Zip": 63026, "Phone": "(636) 343-1216", "Latitude": 38.5076212359293, "Longitude": -90.447499305591506 }, "geometry": { "type": "Point", "coordinates": [ -90.447499305591506, 38.5076212359293 ] } },
{ "type": "Feature", "properties": { "OBJECTID": 23, "Company": "Schnucks Richardson Road", "Street": "3900 Vogel Rd", "City": "Arnold", "State": "MO", "Zip": 63010, "Phone": "(636) 282-3377", "Latitude": 38.416047211106402, "Longitude": -90.394631581850106 }, "geometry": { "type": "Point", "coordinates": [ -90.394631581850106, 38.416047211106402 ] } },
{ "type": "Feature", "properties": { "OBJECTID": 24, "Company": "Schnucks O'Fallon", "Street": "8660 Veterans Memorial Pkwy", "City": "O'Fallon", "State": "MO", "Zip": 63366, "Phone": "(636) 978-3566", "Latitude": 38.799036049450798, "Longitude": -90.698573895094 }, "geometry": { "type": "Point", "coordinates": [ -90.698573895094, 38.799036049450798 ] } },
{ "type": "Feature", "properties": { "OBJECTID": 25, "Company": "Schnucks Cottleville", "Street": "6083 Mid Rivers Mall Dr", "City": "St Charles", "State": "MO", "Zip": 63304, "Phone": "(636) 498-0108", "Latitude": 38.7455316305618, "Longitude": -90.636885137518803 }, "geometry": { "type": "Point", "coordinates": [ -90.636885137518803, 38.7455316305618 ] } },
{ "type": "Feature", "properties": { "OBJECTID": 26, "Company": "Schnucks Chesterfield", "Street": "141 Hilltown Village Center", "City": "Chesterfield", "State": "MO", "Zip": 63017, "Phone": "(636) 532-2505", "Latitude": 38.659094605296403, "Longitude": -90.553257813347301 }, "geometry": { "type": "Point", "coordinates": [ -90.553257813347301, 38.659094605296403 ] } },
{ "type": "Feature", "properties": { "OBJECTID": 27, "Company": "Schnucks Woods Mill", "Street": "1060 Woods Mill Rd", "City": "Town and Country", "State": "MO", "Zip": 63017, "Phone": "(636) 227-2278", "Latitude": 38.6228567481159, "Longitude": -90.513641306545395 }, "geometry": { "type": "Point", "coordinates": [ -90.513641306545395, 38.6228567481159 ] } },
{ "type": "Feature", "properties": { "OBJECTID": 28, "Company": "Schnucks Water Tower", "Street": "1253 Water Tower Pl", "City": "Arnold", "State": "MO", "Zip": 63010, "Phone": "(636) 296-7050", "Latitude": 38.439256899114703, "Longitude": -90.3753148131713 }, "geometry": { "type": "Point", "coordinates": [ -90.3753148131713, 38.439256899114703 ] } },
{ "type": "Feature", "properties": { "OBJECTID": 29, "Company": "Schnucks Harvester", "Street": "Plaza 94", "City": "St Peters", "State": "MO", "Zip": 63376, "Phone": "(636) 928-1623", "Latitude": 38.749128522550699, "Longitude": -90.592031357672795 }, "geometry": { "type": "Point", "coordinates": [ -90.592031357672795, 38.749128522550699 ] } },
{ "type": "Feature", "properties": { "OBJECTID": 30, "Company": "Schnucks Mid Rivers", "Street": "577 Mid Rivers Mall Dr", "City": "St Peters", "State": "MO", "Zip": 63376, "Phone": "(636) 970-2570", "Latitude": 38.787223696065197, "Longitude": -90.628204242221699 }, "geometry": { "type": "Point", "coordinates": [ -90.628204242221699, 38.787223696065197 ] } },
{ "type": "Feature", "properties": { "OBJECTID": 31, "Company": "Schnucks Harvester Square", "Street": "60 Harvester Square", "City": "St Charles", "State": "MO", "Zip": 63303, "Phone": "(636) 441-5900", "Latitude": 38.746373644584601, "Longitude": -90.576470303249096 }, "geometry": { "type": "Point", "coordinates": [ -90.576470303249096, 38.746373644584601 ] } },
{ "type": "Feature", "properties": { "OBJECTID": 32, "Company": "Schnucks Des Peres", "Street": "12332 Manchesther Rd", "City": "St. Louis", "State": "MO", "Zip": 63131, "Phone": "(314) 965-3094", "Latitude": 38.601616293130803, "Longitude": -90.442049403011794 }, "geometry": { "type": "Point", "coordinates": [ -90.442049403011794, 38.601616293130803 ] } },
{ "type": "Feature", "properties": { "OBJECTID": 33, "Company": "Schnucks Butler Hill", "Street": "4333 Butler Hill Rd", "City": "St. Louis", "State": "MO", "Zip": 63128, "Phone": "(314) 894-1227", "Latitude": 38.487319593316798, "Longitude": -90.358730563878595 }, "geometry": { "type": "Point", "coordinates": [ -90.358730563878595, 38.487319593316798 ] } },
{ "type": "Feature", "properties": { "OBJECTID": 34, "Company": "Schnucks Mason", "Street": "12756 Olive Blvd", "City": "St. Louis", "State": "MO", "Zip": 63141, "Phone": "(314) 434-7323", "Latitude": 38.6783662951051, "Longitude": -90.4731031378453 }, "geometry": { "type": "Point", "coordinates": [ -90.4731031378453, 38.6783662951051 ] } },
{ "type": "Feature", "properties": { "OBJECTID": 35, "Company": "Schnucks Concord Village", "Street": "5434 Southfield Center", "City": "St. Louis", "State": "MO", "Zip": 63123, "Phone": "(314) 849-1815", "Latitude": 38.526147150984201, "Longitude": -90.359041996440496 }, "geometry": { "type": "Point", "coordinates": [ -90.359041996440496, 38.526147150984201 ] } },
{ "type": "Feature", "properties": { "OBJECTID": 36, "Company": "Schnucks Crestwood", "Street": "9540 Watson Rd", "City": "Sappington", "State": "MO", "Zip": 63126, "Phone": "(314) 849-0341", "Latitude": 38.557104631076001, "Longitude": -90.378810613789 }, "geometry": { "type": "Point", "coordinates": [ -90.378810613789, 38.557104631076001 ] } },
{ "type": "Feature", "properties": { "OBJECTID": 37, "Company": "Schnucks Kirkwood", "Street": "10233 Manchester Rd", "City": "St. Louis", "State": "MO", "Zip": 63122, "Phone": "(314) 965-7310", "Latitude": 38.602247856331502, "Longitude": -90.396154159606894 }, "geometry": { "type": "Point", "coordinates": [ -90.396154159606894, 38.602247856331502 ] } },
{ "type": "Feature", "properties": { "OBJECTID": 38, "Company": "Schnucks Telegraph", "Street": "5519 Oakville Shopping Center", "City": "St. Louis", "State": "MO", "Zip": 63129, "Phone": "(314) 892-6401", "Latitude": 38.472722524679, "Longitude": -90.307092671358404 }, "geometry": { "type": "Point", "coordinates": [ -90.307092671358404, 38.472722524679 ] } },
{ "type": "Feature", "properties": { "OBJECTID": 39, "Company": "Schnucks Lindbergh", "Street": "10275 Clayton Rd", "City": "Clayton", "State": "MO", "Zip": 63124, "Phone": "(314) 991-0510", "Latitude": 38.634293982630801, "Longitude": -90.404825218091503 }, "geometry": { "type": "Point", "coordinates": [ -90.404825218091503, 38.634293982630801 ] } },
{ "type": "Feature", "properties": { "OBJECTID": 40, "Company": "Schnucks Zumbehl", "Street": "1950 Zumbehl Rd", "City": "St Charles", "State": "MO", "Zip": 63303, "Phone": "(636) 947-8422", "Latitude": 38.780986805428697, "Longitude": -90.529845117059693 }, "geometry": { "type": "Point", "coordinates": [ -90.529845117059693, 38.780986805428697 ] } },
{ "type": "Feature", "properties": { "OBJECTID": 41, "Company": "Schnucks Affton", "Street": "10070 Gravois Ave", "City": "St. Louis", "State": "MO", "Zip": 63123, "Phone": "(314) 631-8220", "Latitude": 38.549312470144898, "Longitude": -90.336190856148505 }, "geometry": { "type": "Point", "coordinates": [ -90.336190856148505, 38.549312470144898 ] } },
{ "type": "Feature", "properties": { "OBJECTID": 42, "Company": "Schnucks Webster Groves", "Street": "8650 Big Bend Blvd", "City": "St. Louis", "State": "MO", "Zip": 63119, "Phone": "(314) 961-0555", "Latitude": 38.5827624927839, "Longitude": -90.356629364087098 }, "geometry": { "type": "Point", "coordinates": [ -90.356629364087098, 38.5827624927839 ] } },
{ "type": "Feature", "properties": { "OBJECTID": 43, "Company": "Schnucks Dorsett", "Street": "2030 Dorsett Rd", "City": "Maryland Heights", "State": "MO", "Zip": 63043, "Phone": "(314) 434-3147", "Latitude": 38.715971267442399, "Longitude": -90.456212954755102 }, "geometry": { "type": "Point", "coordinates": [ -90.456212954755102, 38.715971267442399 ] } },
{ "type": "Feature", "properties": { "OBJECTID": 44, "Company": "Schnucks Creve Coeur", "Street": "10650 Olive Blvd", "City": "Creve Coeur", "State": "MO", "Zip": 63141, "Phone": "(314) 567-3838", "Latitude": 38.672403992144098, "Longitude": -90.414137366005207 }, "geometry": { "type": "Point", "coordinates": [ -90.414137366005207, 38.672403992144098 ] } },
{ "type": "Feature", "properties": { "OBJECTID": 45, "Company": "Schnucks Lindenwood", "Street": "1900 1st Capitol Dr", "City": "St Charles", "State": "MO", "Zip": 63301, "Phone": "(636) 946-0123", "Latitude": 38.782369440829797, "Longitude": -90.501085983158703 }, "geometry": { "type": "Point", "coordinates": [ -90.501085983158703, 38.782369440829797 ] } },
{ "type": "Feature", "properties": { "OBJECTID": 46, "Company": "Schnucks Brentwood", "Street": "8800 Manchesther Rd", "City": "Brentwood", "State": "MO", "Zip": 63144, "Phone": "(314) 961-5454", "Latitude": 38.611385165491498, "Longitude": -90.350279769342194 }, "geometry": { "type": "Point", "coordinates": [ -90.350279769342194, 38.611385165491498 ] } },
{ "type": "Feature", "properties": { "OBJECTID": 47, "Company": "Schnucks Lemay", "Street": "1032 Lemay Ferry Rd", "City": "Lemay Township", "State": "MO", "Zip": 63125, "Phone": "(314) 544-2505", "Latitude": 38.533986120400797, "Longitude": -90.284032080054899 }, "geometry": { "type": "Point", "coordinates": [ -90.284032080054899, 38.533986120400797 ] } },
{ "type": "Feature", "properties": { "OBJECTID": 48, "Company": "Schnucks Gravois", "Street": "7450 Hampton Ave", "City": "St. Louis", "State": "MO", "Zip": 63109, "Phone": "(314) 832-3440", "Latitude": 38.565634685603001, "Longitude": -90.29351226352 }, "geometry": { "type": "Point", "coordinates": [ -90.29351226352, 38.565634685603001 ] } },
{ "type": "Feature", "properties": { "OBJECTID": 49, "Company": "Schnucks Ladue", "Street": "8867 Laude Rd", "City": "St. Louis", "State": "MO", "Zip": 63124, "Phone": "(314) 725-7574", "Latitude": 38.656221963062201, "Longitude": -90.354096424153596 }, "geometry": { "type": "Point", "coordinates": [ -90.354096424153596, 38.656221963062201 ] } },
{ "type": "Feature", "properties": { "OBJECTID": 50, "Company": "Schnucks Maplewood", "Street": "7355 Manchester Rd", "City": "Maplewood", "State": "MO", "Zip": 63143, "Phone": "(314) 644-7825", "Latitude": 38.614096264165603, "Longitude": -90.319162620767898 }, "geometry": { "type": "Point", "coordinates": [ -90.319162620767898, 38.614096264165603 ] } },
{ "type": "Feature", "properties": { "OBJECTID": 51, "Company": "Schnucks Market Place", "Street": "1000 Columbia Center Dr", "City": "Columbia", "State": "IL", "Zip": 62236, "Phone": "(618) 281-6300", "Latitude": 38.444468916859798, "Longitude": -90.220741199561402 }, "geometry": { "type": "Point", "coordinates": [ -90.220741199561402, 38.444468916859798 ] } },
{ "type": "Feature", "properties": { "OBJECTID": 52, "Company": "Schnucks Hampton Village", "Street": "60 Hampton Village Plaza", "City": "St. Louis", "State": "MO", "Zip": 63109, "Phone": "(314) 353-5060", "Latitude": 38.591702758683397, "Longitude": -90.293278111783906 }, "geometry": { "type": "Point", "coordinates": [ -90.293278111783906, 38.591702758683397 ] } },
{ "type": "Feature", "properties": { "OBJECTID": 53, "Company": "Schnucks Overland", "Street": "9074 Overland Plaza", "City": "Overland", "State": "MO", "Zip": 63114, "Phone": "(314) 426-3800", "Latitude": 38.6852203676874, "Longitude": -90.359259675105093 }, "geometry": { "type": "Point", "coordinates": [ -90.359259675105093, 38.6852203676874 ] } },
{ "type": "Feature", "properties": { "OBJECTID": 54, "Company": "Schnucks Bridgeton", "Street": "11253 St Charles Rock Rd", "City": "Bridgeton", "State": "MO", "Zip": 63044, "Phone": "(314) 738-0677", "Latitude": 38.740729713771401, "Longitude": -90.400453973237106 }, "geometry": { "type": "Point", "coordinates": [ -90.400453973237106, 38.740729713771401 ] } },
{ "type": "Feature", "properties": { "OBJECTID": 55, "Company": "Schnucks Richmond Center", "Street": "6600 Clayton Rd", "City": "Clayton", "State": "MO", "Zip": 63117, "Phone": "(314) 644-0510", "Latitude": 38.6332765316983, "Longitude": -90.314854229559799 }, "geometry": { "type": "Point", "coordinates": [ -90.314854229559799, 38.6332765316983 ] } },
{ "type": "Feature", "properties": { "OBJECTID": 56, "Company": "Schnucks Loughborough", "Street": "1020 Loughborough Dr", "City": "St. Louis", "State": "MO", "Zip": 63111, "Phone": "(314) 752-5333", "Latitude": 38.5564998774719, "Longitude": -90.263194031647799 }, "geometry": { "type": "Point", "coordinates": [ -90.263194031647799, 38.5564998774719 ] } },
{ "type": "Feature", "properties": { "OBJECTID": 57, "Company": "Schnucks Waterloo", "Street": "150 Waterloo Commons Dr", "City": "Waterloo", "State": "IL", "Zip": 62298, "Phone": "(618) 939-6155", "Latitude": 38.3527437920593, "Longitude": -90.152857929499802 }, "geometry": { "type": "Point", "coordinates": [ -90.152857929499802, 38.3527437920593 ] } },
{ "type": "Feature", "properties": { "OBJECTID": 58, "Company": "Schnucks St John", "Street": "9070 St Charles Rock Rd", "City": "St. Louis", "State": "MO", "Zip": 63114, "Phone": "(314) 427-7066", "Latitude": 38.711541330079399, "Longitude": -90.354329436837602 }, "geometry": { "type": "Point", "coordinates": [ -90.354329436837602, 38.711541330079399 ] } },
{ "type": "Feature", "properties": { "OBJECTID": 59, "Company": "Schnucks University City", "Street": "6920 Olive Blvd", "City": "St. Louis", "State": "MO", "Zip": 63130, "Phone": "(314) 726-2373", "Latitude": 38.6634228946577, "Longitude": -90.314484448531502 }, "geometry": { "type": "Point", "coordinates": [ -90.314484448531502, 38.6634228946577 ] } },
{ "type": "Feature", "properties": { "OBJECTID": 60, "Company": "Schnucks Arsenal", "Street": "5055 Arsenal St", "City": "St. Louis", "State": "MO", "Zip": 63139, "Phone": "(314) 771-5008", "Latitude": 38.606923439681999, "Longitude": -90.274065020159796 }, "geometry": { "type": "Point", "coordinates": [ -90.274065020159796, 38.606923439681999 ] } },
{ "type": "Feature", "properties": { "OBJECTID": 61, "Company": "Schnucks South City", "Street": "3430 S Grand Blvd", "City": "St. Louis", "State": "MO", "Zip": 63118, "Phone": "(314) 772-5500", "Latitude": 38.594869974633099, "Longitude": -90.242496699602995 }, "geometry": { "type": "Point", "coordinates": [ -90.242496699602995, 38.594869974633099 ] } },
{ "type": "Feature", "properties": { "OBJECTID": 62, "Company": "Schnucks Lindell", "Street": "4171 Lindell Blvd", "City": "St. Louis", "State": "MO", "Zip": 63108, "Phone": "(314) 533-8027", "Latitude": 38.641784716466603, "Longitude": -90.2472494080411 }, "geometry": { "type": "Point", "coordinates": [ -90.2472494080411, 38.641784716466603 ] } },
{ "type": "Feature", "properties": { "OBJECTID": 63, "Company": "Schnucks City Plaza", "Street": "3431 Union Blvd", "City": "St. Louis", "State": "MO", "Zip": 63115, "Phone": "(314) 381-8789", "Latitude": 38.679393435930301, "Longitude": -90.261272708400895 }, "geometry": { "type": "Point", "coordinates": [ -90.261272708400895, 38.679393435930301 ] } },
{ "type": "Feature", "properties": { "OBJECTID": 64, "Company": "Schnucks Florissant", "Street": "8200 N Lindbergh Blvd", "City": "Florissant", "State": "MO", "Zip": 63031, "Phone": "(314) 921-7060", "Latitude": 38.789461890414401, "Longitude": -90.344069478665702 }, "geometry": { "type": "Point", "coordinates": [ -90.344069478665702, 38.789461890414401 ] } },
{ "type": "Feature", "properties": { "OBJECTID": 65, "Company": "Schnucks Ferguson", "Street": "49 S Florissant Rd", "City": "St. Louis", "State": "MO", "Zip": 63135, "Phone": "(314) 524-8633", "Latitude": 38.7464039942017, "Longitude": -90.306481020810693 }, "geometry": { "type": "Point", "coordinates": [ -90.306481020810693, 38.7464039942017 ] } },
{ "type": "Feature", "properties": { "OBJECTID": 66, "Company": "Schnucks Charbonier", "Street": "2183 Charbonier Rd", "City": "Florissant", "State": "MO", "Zip": 63031, "Phone": "(314) 831-0469", "Latitude": 38.810347286454601, "Longitude": -90.359980072142307 }, "geometry": { "type": "Point", "coordinates": [ -90.359980072142307, 38.810347286454601 ] } },
{ "type": "Feature", "properties": { "OBJECTID": 67, "Company": "Schnucks Cahokia", "Street": "1615 Camp Jackson Rd", "City": "Sauget", "State": "IL", "Zip": 62206, "Phone": "(618) 332-0060", "Latitude": 38.554871876426098, "Longitude": -90.164839959133602 }, "geometry": { "type": "Point", "coordinates": [ -90.164839959133602, 38.554871876426098 ] } },
{ "type": "Feature", "properties": { "OBJECTID": 68, "Company": "Schnucks Westfall Plaza", "Street": "9037 W Florissant Ave", "City": "St. Louis", "State": "MO", "Zip": 63136, "Phone": "(314) 679-2400", "Latitude": 38.730673714261897, "Longitude": -90.276337551241099 }, "geometry": { "type": "Point", "coordinates": [ -90.276337551241099, 38.730673714261897 ] } },
{ "type": "Feature", "properties": { "OBJECTID": 69, "Company": "Schnucks Shackelford", "Street": "1160 Shackelford Rd", "City": "Florissant", "State": "MO", "Zip": 63031, "Phone": "(314) 838-4685", "Latitude": 38.812763000195901, "Longitude": -90.346081893293999 }, "geometry": { "type": "Point", "coordinates": [ -90.346081893293999, 38.812763000195901 ] } },
{ "type": "Feature", "properties": { "OBJECTID": 70, "Company": "Schnucks Grandview", "Street": "74 Grandview Plaza Shopping Center", "City": "Florissant", "State": "MO", "Zip": 63033, "Phone": "(314) 838-4540", "Latitude": 38.774163930133099, "Longitude": -90.303525096307595 }, "geometry": { "type": "Point", "coordinates": [ -90.303525096307595, 38.774163930133099 ] } },
{ "type": "Feature", "properties": { "OBJECTID": 71, "Company": "Schnucks Downtown", "Street": "315 N 9th St", "City": "St. Louis", "State": "MO", "Zip": 63101, "Phone": "(314) 436-7694", "Latitude": 38.629153102504802, "Longitude": -90.194057225681405 }, "geometry": { "type": "Point", "coordinates": [ -90.194057225681405, 38.629153102504802 ] } },
{ "type": "Feature", "properties": { "OBJECTID": 72, "Company": "Schnucks Cross Keys", "Street": "13987 New Halls Ferry Road", "City": "Florissant", "State": "MO", "Zip": 63033, "Phone": "(314) 831-0011", "Latitude": 38.8069159397132, "Longitude": -90.301198726093105 }, "geometry": { "type": "Point", "coordinates": [ -90.301198726093105, 38.8069159397132 ] } },
{ "type": "Feature", "properties": { "OBJECTID": 73, "Company": "Schnucks Sierra Vista", "Street": "1589 Sierra Vista Plaza", "City": "St. Louis", "State": "MO", "Zip": 63138, "Phone": "(314) 741-0282", "Latitude": 38.772255727971299, "Longitude": -90.219451657730204 }, "geometry": { "type": "Point", "coordinates": [ -90.219451657730204, 38.772255727971299 ] } },
{ "type": "Feature", "properties": { "OBJECTID": 74, "Company": "Schnucks Belleville West", "Street": "5720 N Belt W", "City": "Belleville", "State": "IL", "Zip": 62226, "Phone": "(618) 235-6819", "Latitude": 38.540622809584598, "Longitude": -90.034177407548199 }, "geometry": { "type": "Point", "coordinates": [ -90.034177407548199, 38.540622809584598 ] } },
{ "type": "Feature", "properties": { "OBJECTID": 75, "Company": "Schnucks Granite City", "Street": "3100 Madison Ave", "City": "Granite City", "State": "IL", "Zip": 62040, "Phone": "(618) 451-0517", "Latitude": 38.7169492698158, "Longitude": -90.123910254797593 }, "geometry": { "type": "Point", "coordinates": [ -90.123910254797593, 38.7169492698158 ] } },
{ "type": "Feature", "properties": { "OBJECTID": 76, "Company": "Schnucks Swansea", "Street": "2665 N Illinois St", "City": "Swansea", "State": "IL", "Zip": 62221, "Phone": "(618) 236-1414", "Latitude": 38.543198882526802, "Longitude": -89.985521287652801 }, "geometry": { "type": "Point", "coordinates": [ -89.985521287652801, 38.543198882526802 ] } },
{ "type": "Feature", "properties": { "OBJECTID": 77, "Company": "Schnucks Carlyle Ave", "Street": "800 Carlyle Ave", "City": "Belleville", "State": "IL", "Zip": 62221, "Phone": "(618) 257-9130", "Latitude": 38.516187758339797, "Longitude": -89.950222100528805 }, "geometry": { "type": "Point", "coordinates": [ -89.950222100528805, 38.516187758339797 ] } },
{ "type": "Feature", "properties": { "OBJECTID": 78, "Company": "Schnucks Fairview Heights", "Street": "625 Lincoln Hwy", "City": "Fairview Heights", "State": "IL", "Zip": 62208, "Phone": "(618) 624-4310", "Latitude": 38.5941102669454, "Longitude": -89.976248649838197 }, "geometry": { "type": "Point", "coordinates": [ -89.976248649838197, 38.5941102669454 ] } },
{ "type": "Feature", "properties": { "OBJECTID": 79, "Company": "Schnucks Godfrey", "Street": "2712 Godfrey Rd", "City": "Godfrey", "State": "IL", "Zip": 62035, "Phone": "(618) 466-7060", "Latitude": 38.923487735780299, "Longitude": -90.193835490284798 }, "geometry": { "type": "Point", "coordinates": [ -90.193835490284798, 38.923487735780299 ] } },
{ "type": "Feature", "properties": { "OBJECTID": 80, "Company": "Schnucks Collinsville", "Street": "501 Beltline Rd", "City": "Collinsville", "State": "IL", "Zip": 62234, "Phone": "(618) 345-7661", "Latitude": 38.692463731361201, "Longitude": -89.978586508752898 }, "geometry": { "type": "Point", "coordinates": [ -89.978586508752898, 38.692463731361201 ] } },
{ "type": "Feature", "properties": { "OBJECTID": 81, "Company": "Schnucks Alton", "Street": "2811 Homer M Adams Pkwy", "City": "Alton", "State": "IL", "Zip": 62002, "Phone": "(618) 465-6673", "Latitude": 38.9140303219705, "Longitude": -90.143794355233197 }, "geometry": { "type": "Point", "coordinates": [ -90.143794355233197, 38.9140303219705 ] } },
{ "type": "Feature", "properties": { "OBJECTID": 82, "Company": "Schnucks Seven Hills", "Street": "907 e Hwy 50", "City": "O'Fallon", "State": "IL", "Zip": 62269, "Phone": "(618) 632-5525", "Latitude": 38.583594494962298, "Longitude": -89.896571391490696 }, "geometry": { "type": "Point", "coordinates": [ -89.896571391490696, 38.583594494962298 ] } },
{ "type": "Feature", "properties": { "OBJECTID": 83, "Company": "Schnucks Wood River", "Street": "1900 E Edwards Rd", "City": "Wood River", "State": "IL", "Zip": 62095, "Phone": null, "Latitude": 38.856571065671801, "Longitude": -90.0664721153165 }, "geometry": { "type": "Point", "coordinates": [ -90.0664721153165, 38.856571065671801 ] } },
{ "type": "Feature", "properties": { "OBJECTID": 84, "Company": "Schnucks Bethalto", "Street": "72 Airport Plaza", "City": "Bethalto", "State": "IL", "Zip": 62010, "Phone": "(618) 377-0235", "Latitude": 38.903107918119602, "Longitude": -90.0585788332573 }, "geometry": { "type": "Point", "coordinates": [ -90.0585788332573, 38.903107918119602 ] } },
{ "type": "Feature", "properties": { "OBJECTID": 85, "Company": "Schnucks Edwardsville", "Street": "2222 Troy Rd", "City": "Edwardsville", "State": "IL", "Zip": 62025, "Phone": "(618) 659-0010", "Latitude": 38.7858996816733, "Longitude": -89.948698745503407 }, "geometry": { "type": "Point", "coordinates": [ -89.948698745503407, 38.7858996816733 ] } },
{ "type": "Feature", "properties": { "OBJECTID": 86, "Company": "Schnucks Cape Girardeau", "Street": "19 S Kingshighway", "City": "Cape Giraradeau", "State": "MO", "Zip": 63703, "Phone": "(573) 334-9191", "Latitude": 37.305187185963597, "Longitude": -89.554084982864495 }, "geometry": { "type": "Point", "coordinates": [ -89.554084982864495, 37.305187185963597 ] } },
{ "type": "Feature", "properties": { "OBJECTID": 87, "Company": "Schnucks Carbondale", "Street": "915 W Main St", "City": "Carbondale", "State": "IL", "Zip": 62901, "Phone": "(618) 351-0463", "Latitude": 37.725159925387899, "Longitude": -89.228883920031393 }, "geometry": { "type": "Point", "coordinates": [ -89.228883920031393, 37.725159925387899 ] } },
{ "type": "Feature", "properties": { "OBJECTID": 88, "Company": "Schnucks Centralia", "Street": "1129 W Broadway", "City": "Centralia", "State": "IL", "Zip": 62801, "Phone": "(618) 532-4449", "Latitude": 38.528087100961898, "Longitude": -89.153483798088203 }, "geometry": { "type": "Point", "coordinates": [ -89.153483798088203, 38.528087100961898 ] } },
{ "type": "Feature", "properties": { "OBJECTID": 89, "Company": "Schnucks Montvale", "Street": "2801 Chatham Rd", "City": "Springfield", "State": "IL", "Zip": 62704, "Phone": "(217) 698-2980", "Latitude": 39.768095311013099, "Longitude": -89.688863082501598 }, "geometry": { "type": "Point", "coordinates": [ -89.688863082501598, 39.768095311013099 ] } },
{ "type": "Feature", "properties": { "OBJECTID": 90, "Company": "Schnucks Sangamon", "Street": "1911 E Sangamon Ave", "City": "Springfield", "State": "IL", "Zip": 62702, "Phone": "(217) 744-2012", "Latitude": 39.833035072117099, "Longitude": -89.629954704938797 }, "geometry": { "type": "Point", "coordinates": [ -89.629954704938797, 39.833035072117099 ] } },
{ "type": "Feature", "properties": { "OBJECTID": 91, "Company": "Schnucks Pekin", "Street": "1001 Court St", "City": "Pekin", "State": "IL", "Zip": 61554, "Phone": "(309) 347-6757", "Latitude": 40.5668673690625, "Longitude": -89.636999330978 }, "geometry": { "type": "Point", "coordinates": [ -89.636999330978, 40.5668673690625 ] } },
{ "type": "Feature", "properties": { "OBJECTID": 92, "Company": "Schnucks Peoria", "Street": "4800 N University St", "City": "Peoria", "State": "IL", "Zip": 61614, "Phone": "(309) 690-3242", "Latitude": 40.745792675073297, "Longitude": -89.610252134824805 }, "geometry": { "type": "Point", "coordinates": [ -89.610252134824805, 40.745792675073297 ] } },
{ "type": "Feature", "properties": { "OBJECTID": 93, "Company": "Schnucks Evansville West", "Street": "4500 W Lloyd Expy", "City": "Evansville", "State": "IN", "Zip": 47712, "Phone": "(812) 422-6325", "Latitude": 37.975939678056903, "Longitude": -87.630130661156997 }, "geometry": { "type": "Point", "coordinates": [ -87.630130661156997, 37.975939678056903 ] } },
{ "type": "Feature", "properties": { "OBJECTID": 94, "Company": "Schnucks Knoxville Crossing", "Street": "10405 North Centerway Drive", "City": "Peoria", "State": "IL", "Zip": 61615, "Phone": "(309) 621-7340", "Latitude": 40.814612083366796, "Longitude": -89.615952222190998 }, "geometry": { "type": "Point", "coordinates": [ -89.615952222190998, 40.814612083366796 ] } },
{ "type": "Feature", "properties": { "OBJECTID": 95, "Company": "Schnucks Evansville North", "Street": "3700 N First Ave", "City": "Evansville", "State": "IN", "Zip": 47710, "Phone": "(812) 464-3920", "Latitude": 38.011972349006001, "Longitude": -87.576195736909398 }, "geometry": { "type": "Point", "coordinates": [ -87.576195736909398, 38.011972349006001 ] } },
{ "type": "Feature", "properties": { "OBJECTID": 96, "Company": "Schnucks Bloomington", "Street": "1701 E Empire St", "City": "Bloomington", "State": "IL", "Zip": 61704, "Phone": "(309) 662-9300", "Latitude": 40.485215532113003, "Longitude": -88.951061987576296 }, "geometry": { "type": "Point", "coordinates": [ -88.951061987576296, 40.485215532113003 ] } },
{ "type": "Feature", "properties": { "OBJECTID": 97, "Company": "Schnucks Darmstadt", "Street": "600 E Boonville-New Harmony Rd", "City": "Evansville", "State": "IN", "Zip": 47725, "Phone": "(812) 464-3500", "Latitude": 38.095757251070403, "Longitude": -87.5530279524707 }, "geometry": { "type": "Point", "coordinates": [ -87.5530279524707, 38.095757251070403 ] } },
{ "type": "Feature", "properties": { "OBJECTID": 98, "Company": "Schnucks Normal", "Street": "1750 Bradford Ln", "City": "Normal", "State": "IL", "Zip": 61761, "Phone": "(309) 451-7100", "Latitude": 40.533914870304699, "Longitude": -88.990888971076203 }, "geometry": { "type": "Point", "coordinates": [ -88.990888971076203, 40.533914870304699 ] } },
{ "type": "Feature", "properties": { "OBJECTID": 99, "Company": "Schnucks Green River", "Street": "3501 N Green River Rd", "City": "Evansville", "State": "IN", "Zip": 47715, "Phone": "(812) 473-4510", "Latitude": 38.0095439493331, "Longitude": -87.4896031354846 }, "geometry": { "type": "Point", "coordinates": [ -87.4896031354846, 38.0095439493331 ] } },
{ "type": "Feature", "properties": { "OBJECTID": 100, "Company": "Schnucks Lawndale", "Street": "5000 WashingtonAve", "City": "Evansville", "State": "IN", "Zip": 47715, "Phone": "(812) 473-0151", "Latitude": 37.962879992931803, "Longitude": -87.490571379623006 }, "geometry": { "type": "Point", "coordinates": [ -87.490571379623006, 37.962879992931803 ] } },
{ "type": "Feature", "properties": { "OBJECTID": 101, "Company": "Schnucks Mahomet", "Street": "202 Eastwood Dr", "City": "Mahomet", "State": "IL", "Zip": 61853, "Phone": "(217) 586-1108", "Latitude": 40.196149288900401, "Longitude": -88.395161891104806 }, "geometry": { "type": "Point", "coordinates": [ -88.395161891104806, 40.196149288900401 ] } },
{ "type": "Feature", "properties": { "OBJECTID": 102, "Company": "Schnucks Savoy", "Street": "1301 Savoy Plaza Ln Center", "City": "Savoy", "State": "IL", "Zip": 61874, "Phone": "(217) 373-0700", "Latitude": 40.0705136494919, "Longitude": -88.252050064460605 }, "geometry": { "type": "Point", "coordinates": [ -88.252050064460605, 40.0705136494919 ] } },
{ "type": "Feature", "properties": { "OBJECTID": 103, "Company": "Schnucks Newburgh", "Street": "8301 Bell Oaks Dr", "City": "Newburgh", "State": "IN", "Zip": 47630, "Phone": "(812) 853-9505", "Latitude": 37.9748556774557, "Longitude": -87.401690828462307 }, "geometry": { "type": "Point", "coordinates": [ -87.401690828462307, 37.9748556774557 ] } },
{ "type": "Feature", "properties": { "OBJECTID": 104, "Company": "Schnucks Champaign", "Street": "109 N Mattis Ave", "City": "Champaign", "State": "IL", "Zip": 61821, "Phone": "(217) 351-2600", "Latitude": 40.117010746207797, "Longitude": -88.278813045879502 }, "geometry": { "type": "Point", "coordinates": [ -88.278813045879502, 40.117010746207797 ] } },
{ "type": "Feature", "properties": { "OBJECTID": 105, "Company": "Schnucks Urbana", "Street": "200 N Vine St", "City": "Urbana", "State": "IL", "Zip": 61802, "Phone": "(217) 337-6016", "Latitude": 40.113984908259098, "Longitude": -88.202914686331397 }, "geometry": { "type": "Point", "coordinates": [ -88.202914686331397, 40.113984908259098 ] } },
{ "type": "Feature", "properties": { "OBJECTID": 106, "Company": "Schnucks Jasper", "Street": "3605 N Newton St", "City": "Jasper", "State": "IN", "Zip": 47546, "Phone": "(812) 817-5320", "Latitude": 38.422907922020102, "Longitude": -86.939780671252606 }, "geometry": { "type": "Point", "coordinates": [ -86.939780671252606, 38.422907922020102 ] } },
{ "type": "Feature", "properties": { "OBJECTID": 107, "Company": "Schnucks Dekalb", "Street": "975 S Annie Glidden Rd", "City": "Dekalb", "State": "IL", "Zip": 60115, "Phone": "(815) 748-6200", "Latitude": 41.919699551929, "Longitude": -88.775507013260295 }, "geometry": { "type": "Point", "coordinates": [ -88.775507013260295, 41.919699551929 ] } },
{ "type": "Feature", "properties": { "OBJECTID": 108, "Company": "Schnucks 11th Street", "Street": "3134 11th St", "City": "Rockford", "State": "IL", "Zip": 61109, "Phone": "(815) 398-0440", "Latitude": 42.227806994041401, "Longitude": -89.068882143657504 }, "geometry": { "type": "Point", "coordinates": [ -89.068882143657504, 42.227806994041401 ] } },
{ "type": "Feature", "properties": { "OBJECTID": 109, "Company": "Schnucks Rockford Plaza", "Street": "2642 Charles St", "City": "Rockford", "State": "IL", "Zip": 61108, "Phone": "(815) 484-2453", "Latitude": 42.261474919997603, "Longitude": -89.053617601417002 }, "geometry": { "type": "Point", "coordinates": [ -89.053617601417002, 42.261474919997603 ] } },
{ "type": "Feature", "properties": { "OBJECTID": 110, "Company": "Schnucks Cherry Valley", "Street": "2206 Barnes Blvd", "City": "Rockford", "State": "IL", "Zip": 61112, "Phone": "(815) 332-7267", "Latitude": 42.242996028193197, "Longitude": -88.976934284671898 }, "geometry": { "type": "Point", "coordinates": [ -88.976934284671898, 42.242996028193197 ] } },
{ "type": "Feature", "properties": { "OBJECTID": 111, "Company": "Schnucks East State", "Street": "6410 E State St", "City": "Rockford", "State": "IL", "Zip": 61108, "Phone": "(815) 397-6080", "Latitude": 42.270346749985102, "Longitude": -88.991935754981199 }, "geometry": { "type": "Point", "coordinates": [ -88.991935754981199, 42.270346749985102 ] } },
{ "type": "Feature", "properties": { "OBJECTID": 112, "Company": "Schnucks Loves Park", "Street": "1810 Harlem Rd", "City": "Loves Park", "State": "IL", "Zip": 61111, "Phone": "(815) 633-1481", "Latitude": 42.341484496102801, "Longitude": -89.030778015531098 }, "geometry": { "type": "Point", "coordinates": [ -89.030778015531098, 42.341484496102801 ] } },
{ "type": "Feature", "properties": { "OBJECTID": 113, "Company": "Schnucks Roscoe", "Street": "4860 Hononegah Rd", "City": "Roscoe", "State": "IL", "Zip": 61073, "Phone": "(815) 623-7799", "Latitude": 42.432511303449203, "Longitude": -89.020168765015299 }, "geometry": { "type": "Point", "coordinates": [ -89.020168765015299, 42.432511303449203 ] } },
{ "type": "Feature", "properties": { "OBJECTID": 114, "Company": "Schnucks Janesville", "Street": "1501 Creston Park Dr", "City": "Janesville", "State": "WI", "Zip": 53545, "Phone": "(608) 755-5805", "Latitude": 42.702377570695397, "Longitude": -89.003889505105306 }, "geometry": { "type": "Point", "coordinates": [ -89.003889505105306, 42.702377570695397 ] } }
]
}
